City,Cloudiness,Country,Date,Humidity,Lat,Lng,Max Temp,Wind Speed
Albany,91,US,1600067858,100,42.6,-73.97,62.01,6.24
Kapaa,40,US,1600067740,69,22.08,-159.32,80.6,9.17
Esperance,0,AU,1600067859,43,-33.87,121.9,71.6,12.75
Hong Kong,40,HK,1600067561,62,22.29,114.16,89.6,17.22
Waingapu,68,ID,1600067859,40,-9.66,120.26,86.32,16.15
Thompson,75,CA,1600067581,86,55.74,-97.86,39.2,4.65
Hualmay,90,PE,1600067860,85,-11.1,-77.61,59.65,6.4
Nikolskoye,40,RU,1600067860,82,59.7,30.79,57.2,11.18
Bluff,8,NZ,1600067867,81,-46.6,168.33,48.0,1.01
Prince Albert,90,CA,1600067601,70,53.2,-105.77,48.2,4.7
São João da Barra,0,BR,1600067868,83,-21.64,-41.05,72.27,18.52
Maragogi,100,BR,1600067868,85,-9.01,-35.22,73.02,9.69
Alofi,75,NU,1600067868,60,-19.06,-169.92,71.6,13.87
Omboué,5,GA,1600067869,74,-1.57,9.26,77.4,6.49
Port Alfred,0,ZA,1600067870,54,-33.59,26.89,62.24,15.75
Saint Paul Harbor,1,US,1600067870,76,57.79,-152.41,48.2,6.93
Fortuna,90,US,1600067870,100,40.6,-124.16,57.0,0.29
Narsaq,0,GL,1600067872,55,60.92,-46.05,33.8,5.82
Tallahassee,1,US,1600067752,88,30.44,-84.28,77.0,10.29
Worland,1,US,1600067878,50,44.02,-107.96,53.6,3.36
Coahuayana Viejo,99,MX,1600067879,85,18.73,-103.68,78.75,1.81
Talnakh,75,RU,1600067879,87,69.49,88.4,55.4,13.42
Kajaani,75,FI,1600067879,87,64.23,27.73,48.2,14.99
Kerrville,40,US,1600067877,83,30.05,-99.14,73.99,4.7
Vaini,75,TO,1600067880,77,-21.2,-175.2,69.8,6.93
Non Thai,75,TH,1600067880,66,15.2,102.04,96.01,4.7
Hobart,20,AU,1600067880,43,-42.88,147.33,55.4,20.8
Nome,90,US,1600067880,87,64.5,-165.41,50.0,14.99
Ushuaia,75,AR,1600067851,49,-54.8,-68.3,46.4,27.51
Rikitea,0,PF,1600067881,84,-23.12,-134.97,73.69,14.16
Kamaishi,75,JP,1600067881,83,39.27,141.88,69.8,8.05
Dikson,100,RU,1600067882,93,73.51,80.55,41.43,20.22
Vila Franca do Campo,20,PT,1600067882,78,37.72,-25.43,71.6,13.87
George Town,20,MY,1600067709,70,5.41,100.34,86.0,4.7
Acapulco de Juárez,95,MX,1600067883,80,16.86,-99.89,78.87,2.15
Port Elizabeth,0,ZA,1600067883,55,-33.92,25.57,60.8,17.22
Dzhebariki-Khaya,100,RU,1600067884,56,62.22,135.8,56.8,4.9
Mataura,63,NZ,1600067884,81,-46.19,168.86,48.0,1.01
Baykit,1,RU,1600067884,47,61.67,96.37,65.61,2.57
Sheridan,1,US,1600067884,81,44.83,-106.92,48.2,3.36
Ust'-Koksa,100,RU,1600067885,35,50.27,85.61,64.06,0.81
Aloleng,100,PH,1600067885,72,16.13,119.78,86.18,8.61
Punta Arenas,100,CL,1600067885,65,-53.15,-70.92,44.6,20.8
Bryukhovychi,0,UA,1600067886,87,49.9,23.96,64.0,2.24
Cape Town,75,ZA,1600067768,81,-33.93,18.42,55.99,1.12
Sitka,1,US,1600067886,47,57.05,-135.33,55.4,4.7
Atuona,16,PF,1600067886,78,-9.8,-139.03,78.17,15.88
Mahébourg,75,MU,1600067886,64,-20.41,57.7,73.4,21.92
Awjilah,0,LY,1600067887,31,29.11,21.29,87.84,13.22
Dapaong,90,TG,1600067887,92,10.86,0.2,73.69,5.88
North Mankato,1,US,1600067887,93,44.17,-94.03,60.8,6.93
Kannad,98,IN,1600067888,72,20.27,75.13,80.8,6.73
Ambilobe,0,MG,1600067890,26,-13.2,49.05,90.37,10.69
Airai,52,TL,1600067890,47,-8.93,125.41,72.95,6.11
Taltal,59,CL,1600067890,78,-25.4,-70.48,54.7,4.9
Tuktoyaktuk,100,CA,1600067891,94,69.45,-133.04,37.98,26.31
Bilma,93,NE,1600067891,13,18.69,12.92,91.85,6.69
Marawi,100,PH,1600067891,81,8.0,124.29,84.0,3.0
Bougouni,59,ML,1600067892,94,11.42,-7.48,72.99,2.51
Gorontalo,3,ID,1600067895,52,0.54,123.06,85.62,5.73
Kitama,98,TZ,1600067901,51,-10.72,39.73,83.55,6.53
Lavrentiya,100,RU,1600067902,92,65.58,-171.0,42.98,12.73
Tarrafal,92,CV,1600067902,80,15.28,-23.77,79.2,3.71
Ponta do Sol,20,PT,1600067902,82,32.67,-17.1,68.0,5.23
Yellowknife,5,CA,1600067732,88,62.46,-114.35,32.0,3.36
Half Moon Bay,90,US,1600067903,87,37.46,-122.43,60.01,4.0
Avarua,14,CK,1600067903,68,-21.21,-159.78,69.8,2.24
Pacific Grove,84,US,1600067903,93,36.62,-121.92,59.0,3.74
Weligama,100,LK,1600067904,71,5.97,80.42,83.86,13.51
Kawalu,98,ID,1600067904,59,-7.38,108.21,82.24,6.11
Bakchar,100,RU,1600067905,57,57.02,82.07,61.5,4.45
Cabo San Lucas,93,MX,1600067905,91,22.89,-109.91,80.01,6.04
Lososina,11,RU,1600067905,62,49.0,140.31,63.14,8.23
Khatanga,54,RU,1600067905,47,71.97,102.5,60.64,7.36
Znamenskoye,94,RU,1600067906,63,57.13,73.83,61.03,4.29
Taoudenni,6,ML,1600067906,13,22.68,-3.98,98.91,5.14
Pevek,92,RU,1600067906,82,69.7,170.31,43.07,10.47
Grindavik,75,IS,1600067906,93,63.84,-22.43,42.8,6.93
Hithadhoo,0,MV,1600067907,66,-0.6,73.08,81.63,5.86
Bredasdorp,75,ZA,1600067907,81,-34.53,20.04,53.6,23.04
Manzhouli,4,CN,1600067907,43,49.6,117.43,61.21,11.16
Northam,0,GB,1600067907,88,51.03,-4.22,61.0,7.0
Beswān,0,IN,1600067908,41,27.65,77.88,97.79,2.71
Saint George,1,US,1600067630,11,37.1,-113.58,78.8,9.17
Hofn,100,IS,1600067908,84,64.25,-15.21,45.21,10.92
Vanimo,100,PG,1600067908,68,-2.67,141.3,85.14,7.74
Puerto Ayora,100,EC,1600067909,95,-0.74,-90.35,66.0,7.0
Eilat,0,IL,1600067909,54,29.56,34.95,84.2,17.22
Cidreira,100,BR,1600067912,94,-30.18,-50.21,64.96,13.24
Deputatsky,100,RU,1600067912,56,69.3,139.9,46.89,15.86
Ulaanbaatar,75,MN,1600067912,45,47.91,106.88,48.2,13.42
Santa Rosa,100,PH,1600067912,60,14.31,121.11,90.18,4.21
São Francisco de Assis,62,BR,1600067913,92,-29.55,-55.13,57.42,9.24
Tonj,100,SS,1600067913,83,7.27,28.68,77.99,1.21
Upernavik,77,GL,1600067913,89,72.79,-56.15,29.39,6.6
Qaanaaq,81,GL,1600067913,79,77.48,-69.36,21.51,11.12
Lata,40,PT,1600067914,100,40.16,-8.33,66.99,3.36
Oistins,75,BB,1600067744,88,13.07,-59.53,80.6,9.17
Dolores,0,AR,1600067916,71,-36.31,-57.68,39.63,9.06
Marystown,100,CA,1600067771,100,47.17,-55.15,57.99,14.61
Provideniya,90,RU,1600067917,87,64.38,-173.3,48.2,8.95
Severo-Kuril'sk,10,RU,1600067917,79,50.68,156.12,51.37,13.67
Dingle,55,PH,1600067918,75,11.0,122.67,86.79,7.54
Torbay,90,CA,1600067918,76,47.67,-52.73,55.99,17.22
Busselton,97,AU,1600067919,33,-33.65,115.33,72.0,3.4
Castro,100,BR,1600067919,46,-24.79,-50.01,65.73,3.6
Atar,1,MR,1600067920,22,20.52,-13.05,89.51,6.22
Dédougou,0,BF,1600067920,90,12.47,-3.47,74.98,7.0
Lagoa,99,PT,1600067920,73,39.05,-27.98,69.12,24.76
Sakaiminato,40,JP,1600067921,69,35.55,133.23,77.0,8.05
Zhigansk,62,RU,1600067923,57,66.77,123.37,53.51,17.69
Porkhov,90,RU,1600067923,93,57.77,29.56,55.4,4.47
Katihar,98,IN,1600067924,70,25.53,87.58,88.41,6.29
Luwuk,40,ID,1600067924,58,-0.95,122.79,83.98,9.46
Vostok,100,RU,1600067925,60,46.49,135.88,59.27,1.59
Edgewater,90,US,1600067925,100,28.99,-80.9,78.8,3.36
Guerrero Negro,0,MX,1600067925,57,27.98,-114.06,75.67,7.83
Radzyń Podlaski,1,PL,1600067925,88,51.78,22.62,64.0,9.17
San Juan,0,AR,1600067926,39,-31.54,-68.54,50.74,9.44
Kemijärvi,61,FI,1600067926,88,66.71,27.43,43.61,5.99
Codrington,0,AU,1600067926,77,-38.27,141.97,55.06,10.16
Nchelenge,0,ZM,1600067927,36,-9.35,28.73,85.01,0.2
Levelland,75,US,1600067927,82,33.59,-102.38,66.99,6.93
Tanout,6,NE,1600067927,61,14.97,8.89,83.84,9.91
Carnarvon,0,AU,1600067927,57,-24.87,113.63,78.8,12.75
Qaqortoq,0,GL,1600067928,55,60.72,-46.03,33.8,5.82
Lukovetskiy,90,RU,1600067928,93,64.3,41.92,51.8,8.95
Geraldton,61,AU,1600067928,28,-28.77,114.6,86.0,11.41
Punta de Bombón,58,PE,1600067928,81,-17.17,-71.79,58.41,3.33
Imbituba,34,BR,1600067929,94,-28.24,-48.67,69.8,11.41
Bīrpur,69,IN,1600067929,69,26.52,87.02,87.85,3.02
Cluses,90,FR,1600067929,82,46.06,6.58,66.2,3.38
Jamestown,90,US,1600067858,72,42.1,-79.24,62.01,8.05
New Norfolk,38,AU,1600067930,71,-42.78,147.06,52.0,5.99
Namatanai,100,PG,1600067930,75,-3.67,152.43,83.14,11.65
Krabi,75,TH,1600067930,62,8.07,98.91,89.6,9.17
Katsuura,75,JP,1600067930,83,35.13,140.3,81.0,6.93
Verkhnevilyuysk,9,RU,1600067931,53,63.45,120.32,57.88,6.91
Jiwani,92,PK,1600067931,48,25.05,61.74,88.5,5.48
Murchison,100,NZ,1600067931,86,-41.8,172.33,52.16,3.98
Chara,57,RU,1600067931,49,56.91,118.26,65.8,10.04
Hermanus,98,ZA,1600067932,88,-34.42,19.23,53.01,5.99
Ballina,0,AU,1600067932,64,-28.87,153.57,73.4,8.05
Tahoua,0,NE,1600067932,78,14.89,5.27,78.8,2.24
Barrow,90,US,1600067932,93,71.29,-156.79,39.2,16.11
La Ronge,90,CA,1600067933,93,55.1,-105.28,46.4,5.82
Ribeira Grande,75,PT,1600067933,68,38.52,-28.7,69.8,19.46
Pauini,80,BR,1600067942,85,-7.71,-66.98,73.74,0.49
Homer,92,US,1600067945,92,59.64,-151.55,53.01,5.01
Abhā,79,SA,1600067945,14,18.22,42.51,78.8,4.7
Caraquet,75,CA,1600067946,82,47.79,-64.94,60.8,12.75
Skovorodino,100,RU,1600067949,69,53.98,123.92,66.24,7.0
Santiago,0,CL,1600067654,56,-33.46,-70.65,53.01,2.24
Sambava,7,MG,1600067950,64,-14.27,50.17,77.05,17.49
Kendari,100,ID,1600067950,61,-3.94,122.5,84.15,7.34
Nybro,75,SE,1600067950,82,56.74,15.91,64.99,11.41
Chastyye,100,RU,1600067951,85,57.29,54.97,50.86,15.21
Camaná,88,PE,1600067951,79,-16.62,-72.71,58.95,4.7
Vernon,100,CA,1600067705,60,50.26,-119.27,60.01,2.42
Lerwick,75,GB,1600067831,100,60.15,-1.15,55.4,14.99
Clyde River,90,CA,1600067951,83,70.47,-68.59,35.6,2.24
Avaré,56,BR,1600067952,40,-23.1,-48.93,69.04,5.17
Sehithwa,0,BW,1600067952,18,-20.47,22.72,76.91,8.32
Honiara,20,SB,1600067723,59,-9.43,159.95,89.6,9.17
Toktogul,0,KG,1600067952,89,41.87,72.94,64.99,2.57
Husavik,75,IS,1600067952,93,66.04,-17.34,35.6,2.24
Cherskiy,57,RU,1600067953,65,68.75,161.3,48.54,12.46
Mineros,53,BO,1600067953,83,-17.12,-63.23,75.2,4.7
Juneau,1,US,1600067758,28,58.3,-134.42,57.2,8.05
Nanortalik,24,GL,1600067953,70,60.14,-45.24,38.64,5.01
Dukat,97,RU,1600067954,67,62.55,155.55,41.65,10.63
Isangel,83,VU,1600067954,82,-19.55,169.27,70.93,12.8
Arraial do Cabo,0,BR,1600067957,83,-22.97,-42.03,72.18,29.68
Killybegs,99,IE,1600067957,92,54.63,-8.45,57.99,5.01
Borovoy,54,RU,1600067964,42,55.43,86.08,64.4,6.71
Woodward,1,US,1600067964,87,36.43,-99.39,59.0,4.7
Sonoita,0,MX,1600067965,26,31.85,-112.83,84.58,1.45
Kavieng,31,PG,1600067968,75,-2.57,150.8,84.15,13.6
Río Gallegos,100,AR,1600067969,58,-51.62,-69.22,48.2,9.17
Biograd na Moru,0,HR,1600067969,42,43.94,15.45,82.4,14.99
Naantali,0,FI,1600067969,82,60.47,22.02,57.2,8.05
Pisco,40,PE,1600067969,87,-13.7,-76.22,60.01,1.12
Butaritari,0,KI,1600067970,76,3.07,172.79,83.43,14.27
Birecik,0,TR,1600067970,45,37.03,37.99,82.4,3.27
Saint-François,0,FR,1600067970,67,46.42,3.91,66.6,4.09
Longyearbyen,75,SJ,1600067970,86,78.22,15.64,37.4,3.36
Lebu,0,CL,1600067971,79,-37.62,-73.65,45.68,17.85
Hastings,0,GB,1600067971,99,50.86,0.57,62.01,5.28
Kasungu,0,MW,1600067971,35,-13.03,33.48,79.11,13.11
Leningradskiy,100,RU,1600067971,85,69.38,178.42,40.53,7.96
Hilo,90,US,1600067972,69,19.73,-155.09,77.0,8.05
Dubovskoye,97,RU,1600067972,22,47.41,42.76,74.7,8.57
Tevaitoa,19,PF,1600067972,76,-16.78,-151.5,79.05,7.45
Galesong,20,ID,1600067973,41,-5.32,119.37,91.4,11.41
Plettenberg Bay,37,ZA,1600067974,58,-34.05,23.37,58.14,12.73
Magnolia,0,US,1600067974,96,33.27,-93.24,75.99,7.09
Harper,100,LR,1600067974,88,4.38,-7.72,76.5,12.57
Neryungri,100,RU,1600067975,53,56.67,124.65,65.53,6.24
Gizo Government Station,34,SB,1600067975,73,-8.1,156.84,84.06,5.7
Sangar,100,RU,1600067976,84,63.92,127.47,47.57,13.35
Moussoro,100,TD,1600067976,59,13.64,16.49,80.58,7.36
Nālūt,0,LY,1600067976,61,30.33,10.85,73.2,4.79
Iglesias,20,IT,1600067977,82,39.31,8.54,73.99,5.82
Conceição do Araguaia,98,BR,1600067977,36,-8.26,-49.26,75.42,4.36
Tasiilaq,100,GL,1600067977,97,65.61,-37.64,27.23,2.39
Naze,75,JP,1600067979,78,28.37,129.48,82.4,3.36
Boyolangu,22,ID,1600067979,57,-8.12,111.89,83.71,11.05
Owando,95,CG,1600067979,90,-0.48,15.9,74.32,4.21
Saskylakh,100,RU,1600067980,63,71.92,114.08,55.35,4.83
Inhambane,20,MZ,1600067980,65,-23.86,35.38,78.8,9.17
Botwood,100,CA,1600067980,81,49.15,-55.35,57.99,7.0
San Fernando del Valle de Catamarca,99,AR,1600067980,63,-28.47,-65.79,50.0,3.0
Rawson,0,AR,1600067981,56,-43.3,-65.1,45.91,11.77
Mykolayivka,0,UA,1600067981,60,47.54,30.76,73.22,12.93
Ardakān,20,IR,1600067981,23,32.31,54.02,77.0,9.17
Sawākin,9,SD,1600067982,24,19.11,37.33,100.06,5.41
Mackenzie,75,CA,1600067715,70,55.3,-123.17,46.4,3.36
Hambantota,75,LK,1600067985,79,6.12,81.12,84.2,12.75
Cabedelo,75,BR,1600067985,94,-6.98,-34.83,71.6,4.7
Mount Isa,40,AU,1600067951,17,-20.73,139.5,89.6,10.29
Adrar,88,MR,1600067991,16,20.5,-10.07,93.25,10.67
Dumra,96,IN,1600067991,59,26.57,85.52,91.89,2.51
Mar del Plata,0,AR,1600067991,86,-38.0,-57.56,42.01,5.82
Saint-Pierre,90,RE,1600067992,77,-21.34,55.48,69.8,25.28
Vestmannaeyjar,75,IS,1600067996,87,63.44,-20.27,46.4,10.29
East London,0,ZA,1600068003,63,-33.02,27.91,60.8,8.05
Faanui,17,PF,1600068003,76,-16.48,-151.75,78.17,5.93
Krasnoyarskaya,100,RU,1600068003,25,47.65,42.04,74.14,9.66
Norman Wells,20,CA,1600068004,92,65.28,-126.83,28.4,2.24
Boshnyakovo,0,RU,1600068004,68,49.63,142.17,60.42,4.14
Brae,75,GB,1600068004,93,60.4,-1.35,55.4,13.87
Assiniboia,78,CA,1600068004,45,49.63,-105.98,54.91,14.36
Bireun,88,ID,1600068005,70,5.2,96.7,84.85,7.94
Şurmān,0,LY,1600068005,60,32.76,12.57,79.07,6.87
Krasne,0,UA,1600068005,87,49.91,24.61,64.0,2.24
Kirakira,30,SB,1600068005,79,-10.45,161.92,81.61,10.58
Biga,40,TR,1600068006,78,40.23,27.24,77.0,17.22
Gilgit,27,PK,1600068006,21,35.92,74.31,81.25,3.78
Popondetta,0,PG,1600068006,61,-8.75,148.25,82.92,4.65
Saint-Philippe,90,RE,1600068006,77,-21.36,55.77,69.8,25.28
Benoy,100,TD,1600068007,96,8.98,16.32,70.84,5.44
Mabaruma,10,GY,1600068007,96,8.2,-59.78,73.94,2.26
Solnechnyy,97,RU,1600068007,61,50.72,136.63,71.01,2.84
Pangnirtung,90,CA,1600068007,80,66.15,-65.71,35.44,2.19
Lae,10,PG,1600068008,67,-6.72,146.98,81.19,6.4
Kaitangata,98,NZ,1600068008,67,-46.28,169.85,50.0,7.0
Zabul Province,0,AF,1600068008,14,32.25,67.25,81.07,13.89
Ahipara,62,NZ,1600068009,73,-35.17,173.17,54.37,10.92
Kiama,21,AU,1600068009,81,-34.68,150.87,64.99,5.99
Kharabali,67,RU,1600068009,33,47.42,47.26,71.55,9.93
Keelung,40,TW,1600068010,70,25.13,121.74,91.4,13.87
Mossamedes,97,AO,1600068010,76,-15.2,12.15,65.93,7.61
Dakar,4,SN,1600068010,94,14.69,-17.44,75.2,2.24
Rome,1,US,1600068010,88,43.21,-75.46,62.6,5.82
Port Hardy,90,CA,1600068011,100,50.7,-127.42,55.4,4.7
Tiksi,7,RU,1600068011,76,71.69,128.87,45.48,8.79
Xai-Xai,0,MZ,1600068014,59,-25.05,33.64,77.85,10.07
Tutayev,90,RU,1600068014,81,57.89,39.54,51.8,13.42
Pullman,90,US,1600067995,50,46.73,-117.18,66.0,1.36
Wad Rāwah,26,SD,1600068015,49,15.16,33.14,89.78,13.76
Victor Harbor,7,AU,1600068015,79,-35.57,138.62,55.99,1.99
Doha,27,QA,1600067855,63,25.29,51.53,100.99,9.17
Bendigo,0,AU,1600067831,37,-36.77,144.28,64.0,8.1
Chengde,59,CN,1600068016,45,40.97,117.94,77.14,3.53
Acarí,89,PE,1600068016,63,-15.43,-74.62,61.39,2.68
Mazagão,75,BR,1600068018,100,-0.12,-51.29,77.0,3.36
Te Anau,69,NZ,1600068018,83,-45.42,167.72,43.09,6.38
Kenai,1,US,1600068018,81,60.55,-151.26,44.6,2.1
Løding,75,NO,1600068019,93,67.3,14.75,48.99,31.09
Chui,0,UY,1600068019,80,-33.7,-53.46,47.73,13.22
Adilcevaz,40,TR,1600068019,49,38.8,42.73,71.6,5.82
Bahawalnagar,0,PK,1600068019,25,30.55,73.39,103.96,2.55
Setermoen,40,NO,1600068020,87,68.86,18.35,48.2,9.17
Marsá Maţrūḩ,98,EG,1600068020,69,31.35,27.25,77.0,7.52
Anito,100,PH,1600068020,90,12.45,125.29,79.21,8.39
Quelimane,75,MZ,1600068020,69,-17.88,36.89,77.0,12.75
Avera,1,US,1600068021,94,33.19,-82.53,73.99,5.3
Kaputa,13,ZM,1600068021,38,-8.47,29.66,80.89,4.65
Sørland,75,NO,1600068021,81,67.67,12.69,50.0,17.22
Santa Cruz de la Sierra,78,BO,1600068022,83,-17.8,-63.17,75.2,4.7
São Filipe,54,CV,1600068022,82,14.9,-24.5,78.28,5.95
Samarai,33,PG,1600068022,84,-10.62,150.67,78.67,14.0
Leh,3,IN,1600068023,26,34.17,77.58,62.71,6.85
Vondrozo,15,MG,1600068023,77,-22.82,47.28,67.37,6.67
Muriti,20,TZ,1600068025,44,-1.98,32.92,77.0,19.46
Malé,75,MV,1600068025,74,4.17,73.51,87.8,10.29
Mount Gambier,40,AU,1600068025,66,-37.83,140.77,55.4,12.75
Aras,15,ES,1600068026,60,42.56,-2.36,68.0,6.93
Ilulissat,0,GL,1600068027,53,69.22,-51.1,23.0,11.41
San Patricio,72,MX,1600068027,87,19.22,-104.7,78.28,4.76
El Campo,1,US,1600068027,88,29.2,-96.27,77.0,3.36
Khovd,0,MN,1600068028,33,48.01,91.64,57.67,3.94
Port Macquarie,0,AU,1600068028,74,-31.43,152.92,69.01,5.99
Kruisfontein,20,ZA,1600068028,55,-34.0,24.73,61.0,5.99
Kralendijk,54,BQ,1600068028,83,12.15,-68.27,84.2,12.75
Srednekolymsk,0,RU,1600068029,52,67.45,153.68,53.26,9.17
Klyuchi,8,RU,1600068029,23,52.27,79.17,72.88,4.43
Bandarbeyla,26,SO,1600068029,45,9.49,50.81,90.28,24.36
Ngorongoro,0,TZ,1600068029,52,-3.24,35.49,63.79,7.72
Haines Junction,0,CA,1600068030,85,60.75,-137.51,34.25,1.1
Warwick,90,US,1600067966,88,41.7,-71.42,69.8,8.05
Belmonte,20,BR,1600068030,64,-15.86,-38.88,73.4,12.75
Akdepe,0,TM,1600068033,30,42.06,59.38,82.4,6.93
Beloha,0,MG,1600068033,36,-25.17,45.05,83.59,14.79
Bilibino,100,RU,1600068033,72,68.05,166.44,42.12,4.9
Hamilton,1,US,1600067931,100,39.18,-84.53,66.2,6.4
Beira,75,MZ,1600068034,88,-19.84,34.84,71.6,3.36
Chingirlau,100,KZ,1600068034,34,51.09,54.08,66.47,11.65
Lorengau,51,PG,1600068035,79,-2.02,147.27,82.71,11.32
Richards Bay,100,ZA,1600068035,66,-28.78,32.04,70.9,6.71
Warka,2,PL,1600068035,70,51.78,21.19,68.0,3.0
Murgab,0,TM,1600068035,28,37.5,61.97,80.6,6.98
Neustadt an der Waldnaab,1,DE,1600068036,100,49.71,12.09,61.0,3.38
Pendleton,90,US,1600067818,36,45.67,-118.79,66.99,10.29
Saint-Joseph,90,RE,1600068036,77,-21.37,55.62,69.8,25.28
Penzance,20,GB,1600068037,100,50.12,-5.54,60.8,12.75
Reyes,20,BO,1600068037,57,-14.32,-67.38,76.37,1.72
Ruteng,90,ID,1600068037,71,-8.61,120.47,70.57,1.16
Bālurghāt,76,IN,1600068037,68,25.22,88.77,89.2,5.91
Carthage,40,TN,1600068038,78,36.86,10.33,73.4,5.82
Broken Hill,0,AU,1600068038,30,-31.95,141.43,69.8,16.11
Sabang,100,ID,1600068038,75,5.89,95.32,82.74,16.08
Huntsville,1,US,1600068038,94,34.73,-86.59,72.0,3.36
Yairipok,75,IN,1600068038,73,24.67,94.07,75.2,2.24
Bengkulu,7,ID,1600068039,77,-3.8,102.27,83.21,11.54
Udachny,75,RU,1600068039,50,66.42,112.4,53.6,4.47
Petatlán,100,MX,1600068039,83,17.52,-101.27,76.68,3.94
Petauke,10,ZM,1600068040,31,-14.24,31.33,81.34,8.28
Kampene,36,CD,1600068040,77,-3.6,26.67,77.5,4.25
Miramar,1,US,1600068040,88,25.99,-80.23,82.99,5.82
Tsabong,0,BW,1600068040,32,-26.02,22.4,65.68,8.41
Gilbués,4,BR,1600068041,67,-9.83,-45.34,65.26,5.73
El Tarra,100,CO,1600068041,82,8.58,-73.09,74.79,1.99
Bereket,0,TM,1600068041,27,39.24,55.52,86.72,12.41
Saldanha,75,ZA,1600068041,61,-33.01,17.94,55.4,2.24
Dingli,20,MT,1600068042,78,35.86,14.38,77.0,10.29
Elizabeth City,2,US,1600068043,97,36.29,-76.25,73.0,5.14
Mogadishu,40,SO,1600067791,69,2.04,45.34,80.6,13.87
Aitape,98,PG,1600068043,75,-3.14,142.35,84.0,9.42
Praia da Vitória,75,PT,1600068044,94,38.73,-27.07,69.01,21.14
Imeni Zhelyabova,0,RU,1600068044,71,58.95,36.6,53.78,11.59
Wanning,15,CN,1600068045,68,18.8,110.4,87.69,6.26
Maniitsoq,1,GL,1600068046,80,65.42,-52.9,33.87,11.83
Mahon,0,ES,1600068046,88,39.89,4.27,73.4,4.7
Shubarkuduk,100,KZ,1600068047,30,49.14,56.49,69.75,8.61
Quimper,0,FR,1600068047,72,48.0,-4.1,62.6,4.7
Pizarro,100,CO,1600067764,88,4.95,-77.37,76.86,0.2
Kudahuvadhoo,13,MV,1600068048,70,2.67,72.89,83.16,7.31
Ancud,0,CL,1600068048,96,-41.87,-73.82,39.99,8.99
Peace River,90,CA,1600068048,81,56.25,-117.29,44.01,14.99
Fort-Shevchenko,0,KZ,1600068049,49,44.51,50.26,71.06,4.23
Nemuro,75,JP,1600068049,72,43.32,145.57,59.0,6.93
Los Palacios,100,CU,1600068049,89,22.59,-83.25,77.88,5.53
Souillac,75,MU,1600068049,64,-20.52,57.52,73.4,21.92
Pangoa,58,PE,1600068050,95,-12.12,-73.0,64.74,3.85
Bethel,1,US,1600068052,93,41.37,-73.41,66.99,4.7
Pozo Colorado,100,PY,1600068052,69,-23.49,-58.8,76.64,11.48
Luis Gil Pérez,83,MX,1600068053,94,17.87,-93.05,75.25,6.08
Hermiston,90,US,1600068053,76,45.84,-119.29,62.6,3.36
Vila,99,PT,1600068053,85,42.03,-8.16,64.99,2.71
Broome,90,US,1600068054,87,42.25,-75.83,62.01,8.05
Stromness,75,GB,1600067975,87,58.97,-3.3,59.0,9.17
Piteå,45,SE,1600068054,66,65.32,21.48,50.0,10.29
Laas,20,IT,1600068054,93,46.62,10.7,57.2,4.7
Morbegno,62,IT,1600068055,92,46.14,9.57,73.0,0.04
Prince Rupert,90,CA,1600068055,93,54.32,-130.32,53.6,4.7
Vestmanna,87,FO,1600068056,100,62.16,-7.17,46.4,5.82
Kalmunai,100,LK,1600068056,54,7.42,81.82,88.48,4.52
San Quintín,0,MX,1600068056,76,30.48,-115.95,70.7,10.29
Umluj,0,SA,1600068059,38,25.02,37.27,95.0,12.46
Balakhta,0,RU,1600068059,52,55.38,91.6,61.63,1.86
Ōhara,75,JP,1600068060,83,35.25,140.38,78.8,6.93
Hasaki,75,JP,1600068060,83,35.73,140.83,75.2,6.93
Harlingen,100,US,1600068060,100,26.19,-97.7,80.01,8.05
San Vicente,43,AR,1600068061,82,-26.62,-54.13,64.96,6.53
Makkah al Mukarramah,0,SA,1600068061,6,21.43,39.83,109.2,5.88
Manta,90,EC,1600068061,83,-0.95,-80.73,73.4,4.7
Parrsboro,100,CA,1600068063,72,45.4,-64.33,66.0,7.0
Lompoc,90,US,1600068000,93,34.64,-120.46,57.2,7.25
Hailar,0,CN,1600068065,44,49.2,119.7,63.09,11.5
Ippy,83,CF,1600068066,94,6.27,21.22,73.9,1.9
Labuhan,53,ID,1600068066,54,-6.88,112.21,86.88,12.39
Flinders,20,AU,1600068066,75,-34.58,150.86,64.99,1.99
Valdivia,1,CL,1600068067,100,-39.81,-73.25,33.8,2.24
Mehamn,90,NO,1600068067,87,71.04,27.85,48.2,12.75
Staraya Poltavka,100,RU,1600068067,31,50.48,46.48,66.56,16.67
Yangi Marg`ilon,0,UZ,1600068067,26,40.43,71.72,80.6,4.7
Biak,66,ID,1600068067,64,-0.91,122.88,81.93,10.89
Celestún,86,MX,1600068068,76,20.87,-90.4,80.91,3.42
Aswān,0,EG,1600068068,12,24.09,32.91,98.69,13.98
Sande,40,DE,1600068068,100,53.5,8.01,63.0,2.24
Ola,0,RU,1600068068,49,59.58,151.28,59.2,7.27
Merrill,90,US,1600067934,100,45.18,-89.68,51.8,3.69
San Cristobal,98,VE,1600068069,87,7.77,-72.22,65.66,2.59
Kaiyuan,100,CN,1600068069,84,23.7,103.3,71.71,4.21
Iqaluit,90,CA,1600068069,65,63.75,-68.51,41.0,9.17
Tuatapere,0,NZ,1600068070,82,-46.13,167.68,46.99,9.71
Bokhan,100,RU,1600068070,91,53.15,103.77,47.71,11.5
Hede,100,CN,1600068070,76,33.77,120.25,75.38,8.05
Samdari,70,IN,1600068070,43,25.82,72.58,95.86,5.44
Orlovskiy,23,RU,1600068071,26,46.87,42.06,75.31,6.02
Grand Gaube,1,MU,1600068071,61,-20.01,57.66,75.0,18.99
Boende,98,CD,1600068071,96,-0.22,20.87,73.08,1.72
Zamość,0,PL,1600068071,82,50.72,23.25,64.4,9.17
Laguna,90,US,1600068072,72,38.42,-121.42,64.0,5.82
Kumul,0,CN,1600068072,18,42.8,93.45,75.51,2.77
Taksimo,98,RU,1600068072,56,56.34,114.88,65.52,4.9
Måløy,75,NO,1600068072,93,61.94,5.11,51.8,6.93
Alta Gracia,0,AR,1600068073,38,-31.65,-64.43,50.0,9.17
San Ignacio,100,BZ,1600068073,80,17.16,-89.07,75.0,2.19
Amuntai,76,ID,1600068073,54,-2.42,115.25,88.52,3.27
At-Bashi,17,KG,1600068074,24,41.17,75.81,68.68,3.38
Sadābād,17,IN,1600068074,39,27.45,78.05,98.65,0.51
Irbeyskoye,100,RU,1600068074,65,55.64,95.45,59.65,6.02
San Lorenzo,75,PY,1600068074,83,-25.33,-57.53,71.6,21.92
Sovetskiy,100,RU,1600068075,69,61.36,63.58,54.19,13.96
St. George's,40,GD,1600068075,83,12.06,-61.75,84.2,10.29
Micheweni,2,TZ,1600068075,67,-4.97,39.83,81.63,3.53
Hope,0,US,1600068076,76,33.67,-93.59,75.99,7.2
Cap Malheureux,2,MU,1600068076,61,-19.98,57.61,75.0,18.99
Beeskow,39,DE,1600068076,56,52.17,14.25,68.0,1.9
Port Lincoln,7,AU,1600068077,73,-34.73,135.87,57.69,10.36
Mlonggo,20,ID,1600068077,41,-6.53,110.7,93.2,11.41
Lüderitz,0,NA,1600068077,52,-26.65,15.16,56.1,20.71
Balagansk,100,RU,1600068078,91,54.01,103.05,47.41,11.32
Sal Rei,40,CV,1600068081,94,16.18,-22.92,75.2,6.93
Iquitos,0,PE,1600068081,98,-3.75,-73.25,72.25,2.48
Severnoye,47,RU,1600068081,60,56.35,78.36,63.41,6.42
Saquena,0,PE,1600068081,96,-4.67,-73.52,72.39,2.15
Robertsport,100,LR,1600068011,87,6.75,-11.37,77.25,4.54
Lagos,40,NG,1600067961,94,6.58,3.75,77.0,1.83
Hirara,75,JP,1600068082,74,24.8,125.28,86.0,6.93
Bondo,98,CD,1600068083,93,3.81,23.69,71.42,2.08
Bambous Virieux,75,MU,1600068084,64,-20.34,57.76,75.0,21.92
Sangmélima,100,CM,1600068084,94,2.93,11.98,69.03,3.2
Arlit,21,NE,1600068084,19,18.74,7.39,92.62,6.91
Bonthe,97,SL,1600068084,90,7.53,-12.51,77.47,3.74
Charagua,100,BO,1600068085,60,-19.8,-63.22,71.38,12.33
The Pas,90,CA,1600068086,75,53.83,-101.25,46.4,5.82
Ewo,49,CG,1600068086,80,-0.87,14.82,75.7,7.16
Salalah,40,OM,1600068086,70,17.02,54.09,86.0,9.17
Kahului,20,US,1600068087,61,20.89,-156.47,80.6,10.29
Citrus Park,75,US,1600068087,83,28.08,-82.57,78.8,4.7
Kargasok,96,RU,1600068088,59,59.06,80.86,63.72,9.35
Egvekinot,100,RU,1600068088,93,66.32,-179.17,39.07,10.38
Chokurdakh,2,RU,1600068095,52,70.63,147.92,55.27,6.38
Orchard Homes,20,US,1600068096,66,46.86,-114.05,57.99,3.36
Suzun,100,RU,1600068096,39,53.78,82.31,66.36,4.47
Knyaginino,3,RU,1600068096,75,55.82,45.03,54.84,16.78
Springbok,29,ZA,1600068096,69,-29.66,17.89,44.1,3.74
Tres Arroyos,0,AR,1600068097,82,-38.37,-60.28,36.59,7.31
Iranshahr,0,IR,1600068097,10,27.2,60.68,95.0,6.93
Khāsh,0,IR,1600068099,12,28.22,61.22,83.73,11.61
Port Hope,0,US,1600068099,62,43.94,-82.71,59.0,17.29
Sur,0,OM,1600068099,38,22.57,59.53,91.0,9.48
Vao,3,NC,1600068100,80,-22.67,167.48,69.78,16.64
Manthani,23,IN,1600068102,70,18.65,79.67,89.13,8.23
Fairbanks,1,US,1600067809,86,64.84,-147.72,44.01,0.92
Rapid Valley,1,US,1600068103,93,44.06,-103.15,53.6,3.36
Mae Sai,40,TH,1600068105,66,20.43,99.88,87.8,4.7
Sioux Lookout,5,CA,1600068105,100,50.1,-91.92,33.8,1.12
Port Blair,100,IN,1600068105,67,11.67,92.75,86.7,10.96
Jalu,0,LY,1600068105,31,29.03,21.55,87.85,12.44
Antalaha,29,MG,1600068106,68,-14.9,50.28,77.05,14.38
Tarauacá,13,BR,1600068106,93,-8.16,-70.77,71.85,1.77
Ngunguru,100,NZ,1600068106,3,-35.62,174.5,54.0,5.01
Santa Isabel Rio Negro,100,BR,1600068111,90,-0.41,-65.02,74.23,1.61
Krasnosel'kup,98,RU,1600068111,81,65.7,82.47,56.55,11.03
Gamba,44,GA,1600068111,78,-2.65,10.0,76.41,4.29
Lowestoft,0,GB,1600068111,95,52.48,1.75,59.0,5.79
Chunskiy,100,RU,1600068112,58,56.08,99.63,57.9,8.9
Klaksvík,89,FO,1600068112,100,62.23,-6.59,46.4,5.82
Khudumelapye,0,BW,1600068112,25,-23.88,24.75,71.13,10.13
Oyama,75,JP,1600068113,73,36.3,139.8,82.99,9.17
Opochka,100,RU,1600068113,94,56.71,28.66,56.75,10.11
Tigil',97,RU,1600068113,84,57.8,158.67,44.58,11.14
Daru,99,PG,1600068113,74,-9.08,143.21,78.17,13.22
Traralgon,0,AU,1600068114,58,-38.18,146.53,57.99,7.0
Alice Springs,0,AU,1600067905,21,-23.7,133.88,82.4,17.22
Salamanca,40,ES,1600068114,82,40.83,-6.0,68.0,2.46
Honningsvåg,90,NO,1600068114,87,70.98,25.97,48.2,12.75
Aklavik,90,CA,1600068115,86,68.22,-135.01,37.4,6.22
Lexington,1,US,1600068115,93,37.99,-84.48,66.99,6.93
Centralia,90,US,1600068115,100,46.72,-122.95,59.0,1.81
Polson,100,US,1600068115,69,47.69,-114.16,54.0,2.95
Salgar,40,CO,1600068116,100,5.96,-75.97,55.4,2.24
Kharp,100,RU,1600068116,91,66.8,65.81,45.66,13.53
Batemans Bay,20,AU,1600068116,80,-35.72,150.18,63.0,6.91
Charters Towers,76,AU,1600068116,34,-20.1,146.27,79.54,13.33
Warri,98,NG,1600068117,89,5.52,5.75,76.75,4.72
Igbo-Ora,100,NG,1600068117,94,7.43,3.28,72.57,0.67
Mora,100,CM,1600068117,84,11.05,14.14,73.96,5.59
Nizhnyaya Poyma,100,RU,1600068117,55,56.16,97.19,60.15,7.72
Jilib,100,SO,1600068118,58,0.49,42.79,85.82,10.09
Lakes Entrance,0,AU,1600068118,52,-37.88,147.98,61.0,1.99
Lima,90,PE,1600067856,87,-12.04,-77.03,59.0,5.82
Eirunepé,73,BR,1600068118,92,-6.66,-69.87,73.44,1.25
Zuwārah,27,LY,1600068119,64,32.93,12.08,78.85,9.15
Mopti,1,ML,1600068119,94,14.67,-4.0,75.2,9.53
Huarmey,34,PE,1600068119,86,-10.07,-78.15,60.03,6.29
Rajanpur,1,PK,1600068119,18,29.1,70.33,107.73,9.06
Teknāf,98,BD,1600068120,81,20.86,92.31,85.19,10.09
Bereda,100,ES,1600068120,96,43.27,-7.54,63.0,1.99
Dubbo,0,AU,1600068120,43,-32.25,148.62,71.6,9.17
Kumylzhenskaya,100,RU,1600068120,38,49.88,42.59,66.0,5.99
Sofia,20,BG,1600068121,59,42.7,23.32,66.2,1.12
Øksfjord,75,NO,1600068121,100,70.24,22.35,48.2,2.24
College,75,US,1600068124,81,64.86,-147.8,44.01,3.36
Anchorage,1,US,1600068125,81,61.22,-149.9,48.99,1.36
Natal,20,BR,1600068125,88,-5.79,-35.21,71.6,4.7
Pacifica,75,US,1600068086,82,37.61,-122.49,59.0,8.05
La Sarre,100,CA,1600068125,81,48.8,-79.2,42.89,11.43
Sinjār,0,IQ,1600068126,17,36.32,41.88,96.1,2.82
Zhenlai,100,CN,1600068126,66,45.85,123.3,67.84,1.83
Marsh Harbour,92,BS,1600068126,69,26.54,-77.06,83.07,8.3
Mananjary,21,MG,1600068126,64,-21.22,48.33,75.04,6.33
Tigzirt,0,DZ,1600068126,64,36.89,4.12,74.86,7.4
Salamiyah,0,SY,1600068127,46,35.01,37.05,79.52,2.8
Caravelas,1,BR,1600067877,84,-17.71,-39.25,69.35,7.07
Gubkinskiy,100,RU,1600068127,63,64.43,76.5,55.8,12.01
Coyhaique,100,CL,1600068127,85,-45.58,-72.07,37.4,8.86
Mezcala,98,MX,1600068128,91,20.93,-102.75,66.99,1.01
Katobu,75,ID,1600068128,42,-4.94,122.53,87.85,7.02
Saint Anthony,90,US,1600068128,67,45.02,-93.22,61.0,4.7
Los Lunas,1,US,1600068128,44,34.81,-106.73,64.4,4.9
Nhulunbuy,40,AU,1600068129,54,-12.23,136.77,84.2,16.11
Paamiut,100,GL,1600068129,72,61.99,-49.67,36.21,10.29
Lichuan,100,CN,1600068129,96,30.3,108.85,59.74,2.01
Oxelösund,75,SE,1600068129,100,58.67,17.1,59.0,10.29
Olinda,40,BR,1600068122,83,-8.01,-34.86,77.0,5.82
Beyneu,0,KZ,1600068130,31,45.32,55.2,78.22,2.91
Suez,0,EG,1600068130,46,29.97,32.53,84.94,7.58
Luanda,75,AO,1600068130,78,-8.84,13.23,73.4,5.82
Poum,24,NC,1600068130,79,-20.23,164.02,73.42,9.42
Oak Ridge,1,US,1600068131,94,36.01,-84.27,70.0,3.29
Weihe,100,CN,1600068131,86,33.0,105.32,63.25,2.55
Yulara,0,AU,1600067854,18,-25.24,130.99,84.2,11.41
Batagay-Alyta,100,RU,1600068131,91,67.8,130.41,39.97,9.33
Aripuanã,4,BR,1600067938,56,-9.17,-60.63,75.07,1.79
Port Hedland,98,AU,1600068132,26,-20.32,118.57,96.8,17.22
Aykhal,75,RU,1600068132,50,66.0,111.5,53.6,4.47
Waipawa,2,NZ,1600068132,82,-41.41,175.52,57.2,24.16
Oodweyne,0,SO,1600068135,44,9.41,45.06,81.41,19.51
Diffa,97,NE,1600068136,62,13.32,12.61,81.59,9.37
Artyom,75,AZ,1600068136,69,40.47,50.33,77.0,4.7
Rockhampton,2,AU,1600068136,50,-23.38,150.5,77.0,10.29
Kaeo,72,NZ,1600068136,3,-35.1,173.78,54.0,5.01
Nantucket,1,US,1600068137,94,41.28,-70.1,68.0,9.17
Hwange,0,ZW,1600068137,23,-18.37,26.5,78.66,4.85
Seybaplaya,45,MX,1600068137,81,19.65,-90.67,79.79,4.59
Shingū,75,JP,1600068137,65,33.73,135.98,80.6,10.29
Ghazīpur,22,IN,1600068138,55,25.58,83.57,94.75,5.91
Sisimiut,0,GL,1600068138,86,66.94,-53.67,32.81,12.1
Cockburn Town,100,TC,1600067869,72,21.46,-71.14,83.07,11.9
Padang,33,ID,1600068088,68,-0.95,100.35,84.04,4.94
Alexandria,40,EG,1600067994,61,31.22,29.96,82.4,4.7
Nădlac,0,RO,1600068139,64,46.17,20.75,72.0,5.82
Les Cayes,91,HT,1600068140,81,18.2,-73.75,77.92,3.78
Hasilpur,0,PK,1600068140,21,29.71,72.56,104.41,4.88
Bantou,93,CN,1600068140,70,26.22,117.49,82.27,5.08
Weymouth,85,US,1600068069,93,42.22,-70.94,68.0,12.75
Mana,2,GF,1600068140,86,5.66,-53.78,78.75,7.43
Tarakan,93,ID,1600068031,66,3.3,117.63,84.99,6.06
Gushikawa,75,JP,1600068141,66,26.35,127.87,86.0,1.5
Olovyannaya,51,RU,1600068141,46,50.95,115.57,58.28,9.89
Jining,82,CN,1600068141,71,35.41,116.58,77.4,7.38
Garissa,55,KE,1600068141,48,-0.45,39.64,86.2,16.64
Dunedin,50,NZ,1600067982,69,-45.87,170.5,54.0,8.01
Porto Torres,20,IT,1600068142,100,40.84,8.4,71.6,5.82
Barranca,80,PE,1600068142,92,-10.75,-77.77,58.05,4.47
Langsa,97,ID,1600068066,53,4.47,97.97,90.66,5.46
San Jose,90,US,1600068039,77,37.34,-121.89,61.0,4.7
Ardahan,1,TR,1600068051,31,41.11,42.7,74.86,1.7
Kulhudhuffushi,82,MV,1600068143,76,6.62,73.07,82.08,12.35
Yar-Sale,100,RU,1600068143,62,66.83,70.83,54.03,18.61
Ijero,40,NG,1600068143,94,6.48,3.38,77.0,3.22
Vardø,75,NO,1600068144,93,70.37,31.11,48.2,17.22
Unity,100,CA,1600068144,64,52.45,-109.17,51.01,13.18
Dauriya,0,RU,1600068144,44,49.93,116.87,59.47,9.69
Safi,0,MA,1600068145,88,32.3,-9.24,69.31,5.59
Stropkov,0,SK,1600068145,77,49.2,21.65,66.0,1.01
Bangkal,38,PH,1600068145,70,6.07,121.07,83.82,7.4
Mafeteng,0,LS,1600068145,35,-29.82,27.24,59.63,9.51
Thurso,40,GB,1600068145,87,58.59,-3.53,59.0,6.93
Maumere,41,ID,1600068146,53,-8.62,122.21,83.5,0.92
Wasilla,1,US,1600068146,87,61.58,-149.44,46.4,2.24
Harbour Breton,98,CA,1600068146,100,47.48,-55.8,57.99,20.4
Marabu,40,MY,1600068136,78,4.41,114.01,82.4,14.99
Russell,40,US,1600068147,94,32.35,-85.2,73.99,7.09
Weihai,100,CN,1600068147,70,37.5,122.11,75.99,3.38
Hobyo,9,SO,1600068147,55,5.35,48.53,86.36,20.69
Winneba,75,GH,1600068148,94,5.35,-0.62,77.0,8.05
Sinnamary,63,GF,1600068148,86,5.38,-52.95,78.93,7.07
Cayenne,75,GF,1600068148,100,4.93,-52.33,77.0,5.91
Kirkwood,1,US,1600068068,77,38.58,-90.41,66.99,4.97
Caraballeda,20,VE,1600068148,83,10.61,-66.85,77.0,3.33
Tiarei,40,PF,1600068149,69,-17.53,-149.33,78.8,6.93
Östersund,20,SE,1600068149,76,63.18,14.64,48.2,9.17
Roald,75,NO,1600068149,87,62.58,6.13,51.8,2.24
Mombetsu,75,JP,1600068149,72,44.35,143.35,60.8,9.17
Sorong,100,ID,1600068149,84,-0.88,131.25,80.56,15.46
Tabou,99,CI,1600068150,89,4.42,-7.35,76.39,12.37
Petropavlovsk-Kamchatskiy,12,RU,1600068150,39,53.05,158.65,62.6,13.42
Tlacotepec (San Mateo),79,MX,1600068150,86,20.07,-97.87,60.51,6.06
Ellenabad,17,IN,1600068150,24,29.45,74.65,101.62,1.92
Los Llanos de Aridane,0,ES,1600068151,73,28.66,-17.92,71.6,5.82
Taupo,59,NZ,1600068151,87,-38.68,176.08,50.0,5.01
